[{"business_name": "US Botanic Garden",
  "business_address": "100 Maryland Ave SW, Washington, DC 20224",
  "lat": 38.888132,
  "long": -77.01291400000002,
  "cleanliness": 2,
  "handicapped": true,
  "lgbt_friendly": false,
  "unisex": false,
  "changing_table": true,
  "rating": 4,
  "wait_time": "0",
  "description": "Located near the back entrance. If you enter through the main entrance, you need to pass through the jungle exhibit to find it. Generally pretty quiet except during festivals."
},
{"business_name": "Museum of the American Indian",
  "business_address": "4th St & Independence Ave SW, Washington, DC 20560",
  "lat": 38.8875575,
  "long": -77.01755279999998,
  "cleanliness":2,
  "handicapped": true,
  "lgbt_friendly": false,
  "unisex": false,
  "changing_table": true,
  "rating": 3,
  "wait_time": "0",
  "description": "Located near the food court on the first floor. Rarely a wait unless it's lunch time."
},
{"business_name": "National Air and Space Museum",
  "business_address": "600 Independence Ave SW, Washington, DC 20560",
  "lat": 38.8881443,
  "long": -77.0195713,
  "cleanliness": 2,
  "handicapped": true,
  "lgbt_friendly": false,
  "unisex": false,
  "changing_table": false,
  "rating": 3,
  "wait_time": "5",
  "description": "This museum is almost always busy, so there tends to be a line for the restroom."
},
{"business_name": "Hirshorn Museum",
  "business_address": "700 Independence Ave SW, Washington, DC 20560",
  "lat": 38.8875693,
  "long": -77.03103440000001,
  "cleanliness": 3,
  "handicapped": true,
  "lgbt_friendly": false,
  "unisex": false,
  "changing_table": false,
  "rating": 4,
  "wait_time": "0",
  "description": "Located in the basement. Usually empty."
},
{"business_name": "Smithsonian Castle",
  "business_address": "1000 Jefferson Dr SW, Washington, DC 20560",
  "lat": 38.8887583,
  "long": -77.02593939999997,
  "cleanliness": 1,
  "handicapped": true,
  "lgbt_friendly": false,
  "unisex": false,
  "changing_table": true,
  "rating": 2,
  "wait_time": "5",
  "description": "Use as a last option. Not cleaned often enough for the number of people using it each day."
},
{"business_name": "Washington Monument ticket office",
  "business_address": "2 15th St NW, Washington, DC 20024",
  "lat": 38.8901678,
  "long": -77.0330573,
  "cleanliness": 1,
  "handicapped": false,
  "lgbt_friendly": false,
  "unisex": false,
  "changing_table": false,
  "rating": 1,
  "wait_time": "5",
  "description": "Small, crowded, not cleaned often enough."
}
]
